{
  "type": "FeatureCollection",
  "features": [
    {
      "type": "Feature",
      "geometry": {
        "type": "Point",
        "coordinates": [
          -122.109459,
          37.8409597
        ]
      },
      "properties": {
        "osm_id": 358774320,
        "osm_type": "node",
        "infrastructure_type": "Universities/Colleges",
        "name": "Saint Mary's College of California",
        "state": "CA",
        "website": "https://www.stmarys-ca.edu/"
      }
    },
    {
      "type": "Feature",
      "geometry": {
        "type": "Point",
        "coordinates": [
          -119.6957628,
          34.4193043
        ]
      },
      "properties": {
        "osm_id": 358792225,
        "osm_type": "node",
        "infrastructure_type": "Universities/Colleges",
        "name": "Antioch University - Santa Barbara",
        "address": "602 Anacapa Street",
        "city": "Santa Barbara",
        "state": "CA"
      }
    },
    {
      "type": "Feature",
      "geometry": {
        "type": "Point",
        "coordinates": [
          -117.336432,
          33.9644602
        ]
      },
      "properties": {
        "osm_id": 358793885,
        "osm_type": "node",
        "infrastructure_type": "Universities/Colleges",
        "name": "University of California Experiment Station",
        "state": "CA"
      }
    },
    {
      "type": "Feature",
      "geometry": {
        "type": "Point",
        "coordinates": [
          -122.4060821,
          37.79104
        ]
      },
      "properties": {
        "osm_id": 358803242,
        "osm_type": "node",
        "infrastructure_type": "Universities/Colleges",
        "name": "Cogswell College",
        "state": "CA"
      }
    },
    {
      "type": "Feature",
      "geometry": {
        "type": "Point",
        "coordinates": [
          -122.3980109,
          37.7605311
        ]
      },
      "properties": {
        "osm_id": 358805216,
        "osm_type": "node",
        "infrastructure_type": "Universities/Colleges",
        "name": "American College of Traditional Chinese Medicine",
        "state": "CA"
      }
    },
    {
      "type": "Feature",
      "geometry": {
        "type": "Point",
        "coordinates": [
          -122.2664037,
          37.8205823
        ]
      },
      "properties": {
        "osm_id": 358858086,
        "osm_type": "node",
        "infrastructure_type": "Universities/Colleges",
        "name": "Samuel Merritt University",
        "state": "CA"
      }
    },
    {
      "type": "Feature",
      "geometry": {
        "type": "Point",
        "coordinates": [
          -121.519311,
          38.6220307
        ]
      },
      "properties": {
        "osm_id": 358858102,
        "osm_type": "node",
        "infrastructure_type": "Universities/Colleges",
        "name": "University of Phoenix - Sacramento Valley Campus",
        "state": "CA"
      }
    },
    {
      "type": "Feature",
      "geometry": {
        "type": "Point",
        "coordinates": [
          -119.784565,
          36.8561799
        ]
      },
      "properties": {
        "osm_id": 358858118,
        "osm_type": "node",
        "infrastructure_type": "Universities/Colleges",
        "name": "University of Phoenix - Central Valley Campus",
        "state": "CA"
      }
    },
    {
      "type": "Feature",
      "geometry": {
        "type": "Point",
        "coordinates": [
          -118.1515544,
          34.0807625
        ]
      },
      "properties": {
        "osm_id": 358858235,
        "osm_type": "node",
        "infrastructure_type": "Universities/Colleges",
        "name": "Alliant International University",
        "state": "CA"
      }
    },
    {
      "type": "Feature",
      "geometry": {
        "type": "Point",
        "coordinates": [
          -118.2328067,
          34.0431787
        ]
      },
      "properties": {
        "osm_id": 358858290,
        "osm_type": "node",
        "infrastructure_type": "Universities/Colleges",
        "name": "Southern California Institute of Architecture",
        "state": "CA"
      }
    },
    {
      "type": "Feature",
      "geometry": {
        "type": "Point",
        "coordinates": [
          -118.5014709,
          34.1696008
        ]
      },
      "properties": {
        "osm_id": 358858323,
        "osm_type": "node",
        "infrastructure_type": "Universities/Colleges",
        "name": "Phillips Graduate Institute",
        "state": "CA",
        "website": "https://www.pgu.edu/"
      }
    },
    {
      "type": "Feature",
      "geometry": {
        "type": "Point",
        "coordinates": [
          -118.1515563,
          34.0809208
        ]
      },
      "properties": {
        "osm_id": 358858469,
        "osm_type": "node",
        "infrastructure_type": "Universities/Colleges",
        "name": "Platt College - Los Angeles",
        "state": "CA"
      }
    },
    {
      "type": "Feature",
      "geometry": {
        "type": "Point",
        "coordinates": [
          -117.972022,
          34.1303944
        ]
      },
      "properties": {
        "osm_id": 358858517,
        "osm_type": "node",
        "infrastructure_type": "Universities/Colleges",
        "name": "Irell & Manella Graduate School of Biological Sciences",
        "state": "CA",
        "website": "https://www.cityofhope.org/education/irell-and-manella-graduate-school-of-biological-sciences"
      }
    },
    {
      "type": "Feature",
      "geometry": {
        "type": "Point",
        "coordinates": [
          -117.7724752,
          33.56158
        ]
      },
      "properties": {
        "osm_id": 358858601,
        "osm_type": "node",
        "infrastructure_type": "Universities/Colleges",
        "name": "Laguna College of Art and Design",
        "state": "CA",
        "website": "https://www.lcad.edu/"
      }
    },
    {
      "type": "Feature",
      "geometry": {
        "type": "Point",
        "coordinates": [
          -117.8301054,
          34.098594
        ]
      },
      "properties": {
        "osm_id": 358858631,
        "osm_type": "node",
        "infrastructure_type": "Universities/Colleges",
        "name": "Life Pacific University",
        "state": "CA"
      }
    },
    {
      "type": "Feature",
      "geometry": {
        "type": "Point",
        "coordinates": [
          -119.5805491,
          34.421308
        ]
      },
      "properties": {
        "osm_id": 358858640,
        "osm_type": "node",
        "infrastructure_type": "Universities/Colleges",
        "name": "Pacifica Graduate Institute",
        "state": "CA",
        "website": "https://www.pacifica.edu/"
      }
    },
    {
      "type": "Feature",
      "geometry": {
        "type": "Point",
        "coordinates": [
          -121.9981982,
          36.9644918
        ]
      },
      "properties": {
        "osm_id": 358858659,
        "osm_type": "node",
        "infrastructure_type": "Universities/Colleges",
        "name": "Five Branches University",
        "state": "CA"
      }
    },
    {
      "type": "Feature",
      "geometry": {
        "type": "Point",
        "coordinates": [
          -122.5144199,
          37.9807565
        ]
      },
      "properties": {
        "osm_id": 368173066,
        "osm_type": "node",
        "infrastructure_type": "Universities/Colleges",
        "name": "Saint Thomas Hall",
        "state": "CA"
      }
    },
    {
      "type": "Feature",
      "geometry": {
        "type": "Point",
        "coordinates": [
          -122.3991462,
          37.7916315
        ]
      },
      "properties": {
        "osm_id": 386585808,
        "osm_type": "node",
        "infrastructure_type": "Universities/Colleges",
        "name": "University of Phoenix",
        "state": "CA"
      }
    },
    {
      "type": "Feature",
      "geometry": {
        "type": "Point",
        "coordinates": [
          -122.1739822,
          37.4582762
        ]
      },
      "properties": {
        "osm_id": 1262500201,
        "osm_type": "node",
        "infrastructure_type": "Universities/Colleges",
        "name": "Stanford School Of Medicine",
        "state": "CA"
      }
    },
    {
      "type": "Feature",
      "geometry": {
        "type": "Point",
        "coordinates": [
          -122.4265001,
          37.7709564
        ]
      },
      "properties": {
        "osm_id": 1307325427,
        "osm_type": "node",
        "infrastructure_type": "Universities/Colleges",
        "name": "UCSF Dental School",
        "state": "CA"
      }
    },
    {
      "type": "Feature",
      "geometry": {
        "type": "Point",
        "coordinates": [
          -121.9478071,
          37.3179535
        ]
      },
      "properties": {
        "osm_id": 1814092133,
        "osm_type": "node",
        "infrastructure_type": "Universities/Colleges",
        "name": "Five Branches University",
        "state": "CA"
      }
    },
    {
      "type": "Feature",
      "geometry": {
        "type": "Point",
        "coordinates": [
          -121.9971137,
          37.3864725
        ]
      },
      "properties": {
        "osm_id": 1998283898,
        "osm_type": "node",
        "infrastructure_type": "Universities/Colleges",
        "name": "Medical Center \u2013 University of East-West Medicine",
        "state": "CA"
      }
    },
    {
      "type": "Feature",
      "geometry": {
        "type": "Point",
        "coordinates": [
          -122.32492,
          37.5635155
        ]
      },
      "properties": {
        "osm_id": 2340793043,
        "osm_type": "node",
        "infrastructure_type": "Universities/Colleges",
        "name": "Draper University of Heroes",
        "address": "44 East 3rd Avenue",
        "city": "San Mateo",
        "state": "CA",
        "website": "https://www.draperuniversity.com/"
      }
    },
    {
      "type": "Feature",
      "geometry": {
        "type": "Point",
        "coordinates": [
          -122.0077037,
          37.3834617
        ]
      },
      "properties": {
        "osm_id": 2527515400,
        "osm_type": "node",
        "infrastructure_type": "Universities/Colleges",
        "name": "Nine Star University of Health Sciences",
        "address": "441 De Guigne Drive",
        "city": "Sunnyvale",
        "state": "CA"
      }
    },
    {
      "type": "Feature",
      "geometry": {
        "type": "Point",
        "coordinates": [
          -121.4527317,
          38.5529775
        ]
      },
      "properties": {
        "osm_id": 2588232405,
        "osm_type": "node",
        "infrastructure_type": "Universities/Colleges",
        "name": "UC Davis School of Medicine",
        "address": "4610 X Street",
        "city": "Sacramento",
        "state": "CA"
      }
    },
    {
      "type": "Feature",
      "geometry": {
        "type": "Point",
        "coordinates": [
          -117.070454,
          32.777301
        ]
      },
      "properties": {
        "osm_id": 2607827438,
        "osm_type": "node",
        "infrastructure_type": "Universities/Colleges",
        "name": "Sdsu Mems Lab",
        "state": "CA"
      }
    },
    {
      "type": "Feature",
      "geometry": {
        "type": "Point",
        "coordinates": [
          -117.1918345,
          32.7716109
        ]
      },
      "properties": {
        "osm_id": 2660475358,
        "osm_type": "node",
        "infrastructure_type": "Universities/Colleges",
        "name": "Founders Hall",
        "state": "CA"
      }
    },
    {
      "type": "Feature",
      "geometry": {
        "type": "Point",
        "coordinates": [
          -117.19281,
          32.771435
        ]
      },
      "properties": {
        "osm_id": 2660475359,
        "osm_type": "node",
        "infrastructure_type": "Universities/Colleges",
        "name": "Camino Hall",
        "state": "CA"
      }
    },
    {
      "type": "Feature",
      "geometry": {
        "type": "Point",
        "coordinates": [
          -117.9686126,
          33.8488826
        ]
      },
      "properties": {
        "osm_id": 2906669294,
        "osm_type": "node",
        "infrastructure_type": "Universities/Colleges",
        "name": "West Coast University",
        "state": "CA"
      }
    },
    {
      "type": "Feature",
      "geometry": {
        "type": "Point",
        "coordinates": [
          -120.4319402,
          37.3633252
        ]
      },
      "properties": {
        "osm_id": 3172059990,
        "osm_type": "node",
        "infrastructure_type": "Universities/Colleges",
        "name": "University of California, Merced",
        "address": "5200 North Lake Road",
        "city": "Merced",
        "state": "CA"
      }
    },
    {
      "type": "Feature",
      "geometry": {
        "type": "Point",
        "coordinates": [
          -115.441197,
          32.648129
        ]
      },
      "properties": {
        "osm_id": 3802695911,
        "osm_type": "node",
        "infrastructure_type": "Universities/Colleges",
        "name": "Benemerita Escuela Normal Para Lic. En Educacion Preescolar Educadora Rosaura Zapata",
        "address": "Avenida Fernando Montes de Oca Num. 399",
        "state": "CA"
      }
    },
    {
      "type": "Feature",
      "geometry": {
        "type": "Point",
        "coordinates": [
          -115.442828,
          32.62953
        ]
      },
      "properties": {
        "osm_id": 3802695912,
        "osm_type": "node",
        "infrastructure_type": "Universities/Colleges",
        "name": "Benemerita Escuela Normal Urbana Federal Fronteriza",
        "address": "SN Calle Churubusco",
        "state": "CA"
      }
    },
    {
      "type": "Feature",
      "geometry": {
        "type": "Point",
        "coordinates": [
          -115.4309325,
          32.6492098
        ]
      },
      "properties": {
        "osm_id": 3802695913,
        "osm_type": "node",
        "infrastructure_type": "Universities/Colleges",
        "name": "Benemerita Escuela Normal Urbana Nocturna del Estado Ing. Jose G. Valenzuela",
        "address": "SN Avenida Juan Escutia",
        "state": "CA"
      }
    },
    {
      "type": "Feature",
      "geometry": {
        "type": "Point",
        "coordinates": [
          -115.454169,
          32.667154
        ]
      },
      "properties": {
        "osm_id": 3802697168,
        "osm_type": "node",
        "infrastructure_type": "Universities/Colleges",
        "name": "Centro Cultural de Mexicali, Seminario Diocesano",
        "address": "Avenida Madero Num. 2000",
        "state": "CA"
      }
    },
    {
      "type": "Feature",
      "geometry": {
        "type": "Point",
        "coordinates": [
          -116.978886,
          32.511692
        ]
      },
      "properties": {
        "osm_id": 3802697244,
        "osm_type": "node",
        "infrastructure_type": "Universities/Colleges",
        "name": "Centro Internacional de Estudios Superiores, A.C.",
        "address": "Boulevard Federico Benitez Num. 5",
        "state": "CA"
      }
    },
    {
      "type": "Feature",
      "geometry": {
        "type": "Point",
        "coordinates": [
          -115.4235682,
          32.6585226
        ]
      },
      "properties": {
        "osm_id": 3802697260,
        "osm_type": "node",
        "infrastructure_type": "Universities/Colleges",
        "name": "Centro Universitario Tijuana Campus Mexicali",
        "address": "Calzada Cuauhtemoc Num. 1362",
        "state": "CA"
      }
    },
    {
      "type": "Feature",
      "geometry": {
        "type": "Point",
        "coordinates": [
          -115.4235602,
          32.6586649
        ]
      },
      "properties": {
        "osm_id": 3802697262,
        "osm_type": "node",
        "infrastructure_type": "Universities/Colleges",
        "name": "Centro Universitario de Tijuana Campus Mexicali",
        "address": "Calzada Cuahutemoc Num. 1362",
        "state": "CA"
      }
    },
    {
      "type": "Feature",
      "geometry": {
        "type": "Point",
        "coordinates": [
          -117.05235,
          32.513492
        ]
      },
      "properties": {
        "osm_id": 3802697266,
        "osm_type": "node",
        "infrastructure_type": "Universities/Colleges",
        "name": "Centro de Actualizacion del Magisterio",
        "address": "Avenida Matamoros Num. 1750",
        "state": "CA"
      }
    },
    {
      "type": "Feature",
      "geometry": {
        "type": "Point",
        "coordinates": [
          -115.474818,
          32.65613
        ]
      },
      "properties": {
        "osm_id": 3802697331,
        "osm_type": "node",
        "infrastructure_type": "Universities/Colleges",
        "name": "Centro de Capacitacion de Estudios Fiscales Y Finanzas Publica",
        "address": "Avenida Milton Castellanos Num. 1573 Conjunto Urbano Caliss",
        "state": "CA"
      }
    },
    {
      "type": "Feature",
      "geometry": {
        "type": "Point",
        "coordinates": [
          -115.472413,
          32.664654
        ]
      },
      "properties": {
        "osm_id": 3802697350,
        "osm_type": "node",
        "infrastructure_type": "Universities/Colleges",
        "name": "Centro de Estudios Superiores En Ciencias Penales, A.C.",
        "address": "Avenida Reforma Num. 1246",
        "state": "CA"
      }
    },
    {
      "type": "Feature",
      "geometry": {
        "type": "Point",
        "coordinates": [
          -115.4390018,
          32.6171196
        ]
      },
      "properties": {
        "osm_id": 3802697371,
        "osm_type": "node",
        "infrastructure_type": "Universities/Colleges",
        "name": "Centro de Estudios Universitarios 1 6 de Septiembre",
        "address": "Avenida Magisterio Num. 550, Maestros Federales",
        "state": "CA"
      }
    },
    {
      "type": "Feature",
      "geometry": {
        "type": "Point",
        "coordinates": [
          -115.413881,
          32.6295884
        ]
      },
      "properties": {
        "osm_id": 3802697376,
        "osm_type": "node",
        "infrastructure_type": "Universities/Colleges",
        "name": "Centro de Estudios Universitarios Xochicalco",
        "address": "SN Boulevard Manuel Gomez MoriN S/N Rancho La Bodega",
        "state": "CA"
      }
    },
    {
      "type": "Feature",
      "geometry": {
        "type": "Point",
        "coordinates": [
          -117.1193377,
          32.5272699
        ]
      },
      "properties": {
        "osm_id": 3802697384,
        "osm_type": "node",
        "infrastructure_type": "Universities/Colleges",
        "name": "Centro de Investigacion Para El Desarrollo Humano Cidh Universidad",
        "address": "Paseo Playas Num. 501 Seccion Jardines Playas Tijuan",
        "state": "CA"
      }
    },
    {
      "type": "Feature",
      "geometry": {
        "type": "Point",
        "coordinates": [
          -116.9431668,
          32.5369616
        ]
      },
      "properties": {
        "osm_id": 3802697385,
        "osm_type": "node",
        "infrastructure_type": "Universities/Colleges",
        "name": "Centro de Investigacion Y Desarrollo de TecnologiA Digital del Ipn",
        "address": "Avenida del Parque Num. 1310",
        "state": "CA"
      }
    },
    {
      "type": "Feature",
      "geometry": {
        "type": "Point",
        "coordinates": [
          -115.455412,
          32.667062
        ]
      },
      "properties": {
        "osm_id": 3802697386,
        "osm_type": "node",
        "infrastructure_type": "Universities/Colleges",
        "name": "Centro de Investigaciones Culturales",
        "address": "Colonia Nueva",
        "state": "CA"
      }
    },
    {
      "type": "Feature",
      "geometry": {
        "type": "Point",
        "coordinates": [
          -115.406666,
          32.653345
        ]
      },
      "properties": {
        "osm_id": 3802700281,
        "osm_type": "node",
        "infrastructure_type": "Universities/Colleges",
        "name": "Direccion de Educacion Superior E Investigacion Cetys Mexicali",
        "address": "SN Calzada Cetys",
        "state": "CA"
      }
    },
    {
      "type": "Feature",
      "geometry": {
        "type": "Point",
        "coordinates": [
          -115.4610191,
          32.6309699
        ]
      },
      "properties": {
        "osm_id": 3802701509,
        "osm_type": "node",
        "infrastructure_type": "Universities/Colleges",
        "name": "Escuela Superior Comercio Exterior",
        "address": "Boulevard Lopez Mateos Num. 1622",
        "state": "CA"
      }
    },
    {
      "type": "Feature",
      "geometry": {
        "type": "Point",
        "coordinates": [
          -117.118439,
          32.509346
        ]
      },
      "properties": {
        "osm_id": 3802701510,
        "osm_type": "node",
        "infrastructure_type": "Universities/Colleges",
        "name": "Escuela Superior de Artes Visuales",
        "address": "Paseo Pedregal Num. 350-F Seccion Terrazas de Mendoza",
        "state": "CA"
      }
    },
    {
      "type": "Feature",
      "geometry": {
        "type": "Point",
        "coordinates": [
          -117.0318245,
          32.5193451
        ]
      },
      "properties": {
        "osm_id": 3802701524,
        "osm_type": "node",
        "infrastructure_type": "Universities/Colleges",
        "name": "Escuela de Danza Gloria Campobello",
        "address": "Boulevard Fundadores Num. 2589",
        "state": "CA"
      }
    },
    {
      "type": "Feature",
      "geometry": {
        "type": "Point",
        "coordinates": [
          -115.439878,
          32.628754
        ]
      },
      "properties": {
        "osm_id": 3802701525,
        "osm_type": "node",
        "infrastructure_type": "Universities/Colleges",
        "name": "Escuela de Deportes",
        "address": "Unidad Universitaria Mexicali Gran Usuario",
        "state": "CA"
      }
    },
    {
      "type": "Feature",
      "geometry": {
        "type": "Point",
        "coordinates": [
          -117.120118,
          32.512959
        ]
      },
      "properties": {
        "osm_id": 3802701526,
        "osm_type": "node",
        "infrastructure_type": "Universities/Colleges",
        "name": "Escuela de EnfermeriA del Imss",
        "address": "Paseo Playas Num. 1501, Seccion Jardines",
        "state": "CA"
      }
    },
    {
      "type": "Feature",
      "geometry": {
        "type": "Point",
        "coordinates": [
          -115.4679863,
          32.6635186
        ]
      },
      "properties": {
        "osm_id": 3802701527,
        "osm_type": "node",
        "infrastructure_type": "Universities/Colleges",
        "name": "Escuela de EnfermeriA",
        "address": "Avenida I\ufffdLvaro Obregon Y Guillermo Prieto Num. 6",
        "state": "CA"
      }
    },
    {
      "type": "Feature",
      "geometry": {
        "type": "Point",
        "coordinates": [
          -117.034876,
          32.513506
        ]
      },
      "properties": {
        "osm_id": 3802701529,
        "osm_type": "node",
        "infrastructure_type": "Universities/Colleges",
        "name": "Escuela de Humanidades",
        "address": "Lerdo Y Garivaldi",
        "state": "CA"
      }
    },
    {
      "type": "Feature",
      "geometry": {
        "type": "Point",
        "coordinates": [
          -116.627619,
          32.568206
        ]
      },
      "properties": {
        "osm_id": 3802701532,
        "osm_type": "node",
        "infrastructure_type": "Universities/Colleges",
        "name": "Escuela de Ingenieria y Negocios",
        "address": "Paseo de La Juventud Num. 533 Unidad Universitaria Tecate",
        "state": "CA"
      }
    },
    {
      "type": "Feature",
      "geometry": {
        "type": "Point",
        "coordinates": [
          -117.0264923,
          32.5374201
        ]
      },
      "properties": {
        "osm_id": 3802701535,
        "osm_type": "node",
        "infrastructure_type": "Universities/Colleges",
        "name": "Escuela del Pacifico",
        "address": "9211 Avenida Paseo Centenario Tijuana",
        "state": "CA"
      }
    },
    {
      "type": "Feature",
      "geometry": {
        "type": "Point",
        "coordinates": [
          -115.471905,
          32.613589
        ]
      },
      "properties": {
        "osm_id": 3802701879,
        "osm_type": "node",
        "infrastructure_type": "Universities/Colleges",
        "name": "Facultad de Ciencias Humanas",
        "address": "Castellon Y Valladolid",
        "state": "CA"
      }
    },
    {
      "type": "Feature",
      "geometry": {
        "type": "Point",
        "coordinates": [
          -116.9651402,
          32.5330657
        ]
      },
      "properties": {
        "osm_id": 3802701881,
        "osm_type": "node",
        "infrastructure_type": "Universities/Colleges",
        "name": "Facultad de Ciencias Quimicas E Igenieria",
        "address": "Unidad Universitaria Tijuana Ex Ejido Tampico",
        "state": "CA"
      }
    },
    {
      "type": "Feature",
      "geometry": {
        "type": "Point",
        "coordinates": [
          -115.4391783,
          32.6287516
        ]
      },
      "properties": {
        "osm_id": 3802701882,
        "osm_type": "node",
        "infrastructure_type": "Universities/Colleges",
        "name": "Facultad de Ciencias Sociales Y Politicas",
        "address": "Unidad Universitaria Mexicali",
        "state": "CA"
      }
    },
    {
      "type": "Feature",
      "geometry": {
        "type": "Point",
        "coordinates": [
          -115.439179,
          32.628742
        ]
      },
      "properties": {
        "osm_id": 3802701884,
        "osm_type": "node",
        "infrastructure_type": "Universities/Colleges",
        "name": "Facultad de Contabilidad Y Administracion",
        "address": "Unidad Universitaria Mexicali",
        "state": "CA"
      }
    },
    {
      "type": "Feature",
      "geometry": {
        "type": "Point",
        "coordinates": [
          -116.9619913,
          32.5321039
        ]
      },
      "properties": {
        "osm_id": 3802701885,
        "osm_type": "node",
        "infrastructure_type": "Universities/Colleges",
        "name": "Facultad de Contaduria Y Administracion",
        "address": "Unidad Universitaria Tijuana Ex Ejido Tampico",
        "state": "CA"
      }
    },
    {
      "type": "Feature",
      "geometry": {
        "type": "Point",
        "coordinates": [
          -116.96839,
          32.532075
        ]
      },
      "properties": {
        "osm_id": 3802701886,
        "osm_type": "node",
        "infrastructure_type": "Universities/Colleges",
        "name": "Facultad de Derecho",
        "address": "Ex Ejido Tampico",
        "state": "CA"
      }
    },
    {
      "type": "Feature",
      "geometry": {
        "type": "Point",
        "coordinates": [
          -116.9599895,
          32.5326965
        ]
      },
      "properties": {
        "osm_id": 3802701888,
        "osm_type": "node",
        "infrastructure_type": "Universities/Colleges",
        "name": "Facultad de Economia y Relaciones Internacionales",
        "address": "Unidad Universitaria Tijuana Ex Ejido Tampico",
        "state": "CA"
      }
    },
    {
      "type": "Feature",
      "geometry": {
        "type": "Point",
        "coordinates": [
          -115.438477,
          32.628753
        ]
      },
      "properties": {
        "osm_id": 3802701889,
        "osm_type": "node",
        "infrastructure_type": "Universities/Colleges",
        "name": "Facultad de Ciencias Sociales y Pol\u00edticas",
        "address": "Unidad Universitaria Mexicali",
        "state": "CA"
      }
    },
    {
      "type": "Feature",
      "geometry": {
        "type": "Point",
        "coordinates": [
          -116.968301,
          32.530737
        ]
      },
      "properties": {
        "osm_id": 3802701892,
        "osm_type": "node",
        "infrastructure_type": "Universities/Colleges",
        "name": "Facultad de Medicina",
        "address": "Unidad Universitaria Tijuana Ex Ejido Tampico",
        "state": "CA"
      }
    },
    {
      "type": "Feature",
      "geometry": {
        "type": "Point",
        "coordinates": [
          -115.4743491,
          32.6438952
        ]
      },
      "properties": {
        "osm_id": 3802701893,
        "osm_type": "node",
        "infrastructure_type": "Universities/Colleges",
        "name": "Facultad de Medicina",
        "address": "Centro Civc de Mexicali Alfareros",
        "state": "CA"
      }
    },
    {
      "type": "Feature",
      "geometry": {
        "type": "Point",
        "coordinates": [
          -116.9668329,
          32.5326674
        ]
      },
      "properties": {
        "osm_id": 3802701894,
        "osm_type": "node",
        "infrastructure_type": "Universities/Colleges",
        "name": "Facultad de OdontologiA",
        "address": "Unidad Universitaria Tijuana Ex Ejido Tampico",
        "state": "CA"
      }
    },
    {
      "type": "Feature",
      "geometry": {
        "type": "Point",
        "coordinates": [
          -116.9641987,
          32.5326438
        ]
      },
      "properties": {
        "osm_id": 3802701896,
        "osm_type": "node",
        "infrastructure_type": "Universities/Colleges",
        "name": "Facultad de Turismo",
        "address": "Unidad Universitaria Tijuana Ex Ejido Tampico",
        "state": "CA"
      }
    },
    {
      "type": "Feature",
      "geometry": {
        "type": "Point",
        "coordinates": [
          -117.0287608,
          32.5199762
        ]
      },
      "properties": {
        "osm_id": 3802702894,
        "osm_type": "node",
        "infrastructure_type": "Universities/Colleges",
        "name": "Instituto Injus B.C.",
        "address": "2414 Avenida Colombia",
        "state": "CA"
      }
    },
    {
      "type": "Feature",
      "geometry": {
        "type": "Point",
        "coordinates": [
          -115.469045,
          32.663274
        ]
      },
      "properties": {
        "osm_id": 3802703107,
        "osm_type": "node",
        "infrastructure_type": "Universities/Colleges",
        "name": "Instituto de Investigacion Y Desarrollo Educativo",
        "address": "Avenida I\ufffdLvaro Obregon Y Julian Carrillo",
        "state": "CA"
      }
    },
    {
      "type": "Feature",
      "geometry": {
        "type": "Point",
        "coordinates": [
          -116.9633164,
          32.5324498
        ]
      },
      "properties": {
        "osm_id": 3802703109,
        "osm_type": "node",
        "infrastructure_type": "Universities/Colleges",
        "name": "Instituto de Investigaciones Historicas",
        "address": "Unidad Universitaria Tijuana Ex Ejido Tampico",
        "state": "CA"
      }
    },
    {
      "type": "Feature",
      "geometry": {
        "type": "Point",
        "coordinates": [
          -117.031424,
          32.5257063
        ]
      },
      "properties": {
        "osm_id": 3802707870,
        "osm_type": "node",
        "infrastructure_type": "Universities/Colleges",
        "name": "Seminario Diocesano de Tijuana",
        "address": "Avenida Ocampo Y Juan Sarabia 8585 Zona Centro",
        "state": "CA"
      }
    },
    {
      "type": "Feature",
      "geometry": {
        "type": "Point",
        "coordinates": [
          -116.9713945,
          32.5088298
        ]
      },
      "properties": {
        "osm_id": 3802707939,
        "osm_type": "node",
        "infrastructure_type": "Universities/Colleges",
        "name": "Tecnologico de Baja California Campus Tijuana",
        "address": "Boulevard Federico Benitez Num. 500",
        "state": "CA"
      }
    },
    {
      "type": "Feature",
      "geometry": {
        "type": "Point",
        "coordinates": [
          -115.4676499,
          32.6634002
        ]
      },
      "properties": {
        "osm_id": 3802709707,
        "osm_type": "node",
        "infrastructure_type": "Universities/Colleges",
        "name": "Universidad Autonoma de Durango Campus Mexicali",
        "address": "Boulevard Benito Jui\ufffdRez Num. 1798",
        "state": "CA"
      }
    },
    {
      "type": "Feature",
      "geometry": {
        "type": "Point",
        "coordinates": [
          -117.06399,
          32.538537
        ]
      },
      "properties": {
        "osm_id": 3802709709,
        "osm_type": "node",
        "infrastructure_type": "Universities/Colleges",
        "name": "Universidad Estatal de Estudios Pedagogicos",
        "address": "Calle Espa\ufffda Num. 101, Colonia Benito Jui\ufffdRez, Mesa de Otay",
        "state": "CA"
      }
    },
    {
      "type": "Feature",
      "geometry": {
        "type": "Point",
        "coordinates": [
          -115.46448,
          32.6304
        ]
      },
      "properties": {
        "osm_id": 3802709710,
        "osm_type": "node",
        "infrastructure_type": "Universities/Colleges",
        "name": "Universidad Estatal de Estudios Pedagogicos",
        "address": "Avenida Fresnillo",
        "state": "CA"
      }
    },
    {
      "type": "Feature",
      "geometry": {
        "type": "Point",
        "coordinates": [
          -117.1056723,
          32.5195214
        ]
      },
      "properties": {
        "osm_id": 3802709712,
        "osm_type": "node",
        "infrastructure_type": "Universities/Colleges",
        "name": "Universidad Iberoamericana Tijuana",
        "address": "Avenida Costa Coronado",
        "state": "CA"
      }
    },
    {
      "type": "Feature",
      "geometry": {
        "type": "Point",
        "coordinates": [
          -116.956546,
          32.530162
        ]
      },
      "properties": {
        "osm_id": 3802709714,
        "osm_type": "node",
        "infrastructure_type": "Universities/Colleges",
        "name": "Universidad Interamericana Para El Desarrollo",
        "address": "Boulevard DiAz Ordaz 14901-9 Fracc. Reynoso La Mesa",
        "state": "CA"
      }
    },
    {
      "type": "Feature",
      "geometry": {
        "type": "Point",
        "coordinates": [
          -115.440421,
          32.631151
        ]
      },
      "properties": {
        "osm_id": 3802709717,
        "osm_type": "node",
        "infrastructure_type": "Universities/Colleges",
        "name": "Universidad Pedagogica Nacional, Unidad 021 Mexicali",
        "address": "SN Avenida Jose Antonio Torres Y RiO Mocorito S/N",
        "state": "CA"
      }
    },
    {
      "type": "Feature",
      "geometry": {
        "type": "Point",
        "coordinates": [
          -116.9508273,
          32.5267402
        ]
      },
      "properties": {
        "osm_id": 3802709718,
        "osm_type": "node",
        "infrastructure_type": "Universities/Colleges",
        "name": "Universidad Pedagogica Nacional, Unidad 022 Tijuana",
        "address": "SN Paseo de La Vida S/N Mesa de Otay",
        "state": "CA"
      }
    },
    {
      "type": "Feature",
      "geometry": {
        "type": "Point",
        "coordinates": [
          -115.375034,
          32.625492
        ]
      },
      "properties": {
        "osm_id": 3802709719,
        "osm_type": "node",
        "infrastructure_type": "Universities/Colleges",
        "name": "Universidad Politecnica de Baja California",
        "address": "SN Calle de La Claridad Sn",
        "state": "CA"
      }
    },
    {
      "type": "Feature",
      "geometry": {
        "type": "Point",
        "coordinates": [
          -115.414443,
          32.628768
        ]
      },
      "properties": {
        "osm_id": 3802709726,
        "osm_type": "node",
        "infrastructure_type": "Universities/Colleges",
        "name": "Universidad de Estudios Avanzados Campus Oriente",
        "address": "Calzada Gomez MoriN Num. 2000",
        "state": "CA"
      }
    },
    {
      "type": "Feature",
      "geometry": {
        "type": "Point",
        "coordinates": [
          -116.968131,
          32.507352
        ]
      },
      "properties": {
        "osm_id": 3802709727,
        "osm_type": "node",
        "infrastructure_type": "Universities/Colleges",
        "name": "Universidad de Estudios Avanzados Campus Pedregal",
        "address": "Boulevard Federico Benitez Num. 14620 El Pedregal",
        "state": "CA"
      }
    },
    {
      "type": "Feature",
      "geometry": {
        "type": "Point",
        "coordinates": [
          -116.972941,
          32.509199
        ]
      },
      "properties": {
        "osm_id": 3802709729,
        "osm_type": "node",
        "infrastructure_type": "Universities/Colleges",
        "name": "Universidad de Las Californias Internacional",
        "address": "Boulevard Federico Benitez Num. 460 Colonia Espa\ufffdoles",
        "state": "CA"
      }
    },
    {
      "type": "Feature",
      "geometry": {
        "type": "Point",
        "coordinates": [
          -115.404202,
          32.6225409
        ]
      },
      "properties": {
        "osm_id": 3802709731,
        "osm_type": "node",
        "infrastructure_type": "Universities/Colleges",
        "name": "UNIDEP - Universidad del Desarrollo Profesional, Campus Mexicali",
        "address": "1999 Boulevard Lazaro Cardenas esq. Venustiano Carranza",
        "city": "Mexicali",
        "state": "CA"
      }
    },
    {
      "type": "Feature",
      "geometry": {
        "type": "Point",
        "coordinates": [
          -118.591275,
          34.178789
        ]
      },
      "properties": {
        "osm_id": 3956252088,
        "osm_type": "node",
        "infrastructure_type": "Universities/Colleges",
        "name": "University of Phoenix",
        "state": "CA"
      }
    },
    {
      "type": "Feature",
      "geometry": {
        "type": "Point",
        "coordinates": [
          -122.331757,
          37.918362
        ]
      },
      "properties": {
        "osm_id": 3960241694,
        "osm_type": "node",
        "infrastructure_type": "Universities/Colleges",
        "name": "PATH",
        "state": "CA"
      }
    },
    {
      "type": "Feature",
      "geometry": {
        "type": "Point",
        "coordinates": [
          -116.967257,
          32.5330633
        ]
      },
      "properties": {
        "osm_id": 3988614258,
        "osm_type": "node",
        "infrastructure_type": "Universities/Colleges",
        "name": "Geol 505UABC-SDSU class",
        "state": "CA"
      }
    },
    {
      "type": "Feature",
      "geometry": {
        "type": "Point",
        "coordinates": [
          -117.2411887,
          32.8843668
        ]
      },
      "properties": {
        "osm_id": 4022670997,
        "osm_type": "node",
        "infrastructure_type": "Universities/Colleges",
        "name": "School of Global Policy and Strategy",
        "state": "CA"
      }
    },
    {
      "type": "Feature",
      "geometry": {
        "type": "Point",
        "coordinates": [
          -121.8853458,
          37.3280844
        ]
      },
      "properties": {
        "osm_id": 4093400935,
        "osm_type": "node",
        "infrastructure_type": "Universities/Colleges",
        "name": "California Miramar University",
        "address": "505 South Market Street",
        "city": "San Jose",
        "state": "CA",
        "website": "https://www.calmu.edu/san-jose-in-residence-in-silicon-valley-california-miramar-university"
      }
    },
    {
      "type": "Feature",
      "geometry": {
        "type": "Point",
        "coordinates": [
          -122.4044601,
          37.7908421
        ]
      },
      "properties": {
        "osm_id": 4628353540,
        "osm_type": "node",
        "infrastructure_type": "Universities/Colleges",
        "name": "Academy of Art University",
        "state": "CA"
      }
    },
    {
      "type": "Feature",
      "geometry": {
        "type": "Point",
        "coordinates": [
          -117.2403251,
          32.8777645
        ]
      },
      "properties": {
        "osm_id": 4670774477,
        "osm_type": "node",
        "infrastructure_type": "Universities/Colleges",
        "name": "The Basement",
        "state": "CA"
      }
    },
    {
      "type": "Feature",
      "geometry": {
        "type": "Point",
        "coordinates": [
          -115.4438943,
          32.6321793
        ]
      },
      "properties": {
        "osm_id": 4725339809,
        "osm_type": "node",
        "infrastructure_type": "Universities/Colleges",
        "name": "Facultad de ingenieria",
        "state": "CA"
      }
    },
    {
      "type": "Feature",
      "geometry": {
        "type": "Point",
        "coordinates": [
          -116.9634685,
          32.5309715
        ]
      },
      "properties": {
        "osm_id": 4739029521,
        "osm_type": "node",
        "infrastructure_type": "Universities/Colleges",
        "name": "Facultad de Humanidades y Ciencias Sociales",
        "state": "CA"
      }
    },
    {
      "type": "Feature",
      "geometry": {
        "type": "Point",
        "coordinates": [
          -116.9660233,
          32.5314703
        ]
      },
      "properties": {
        "osm_id": 4739029522,
        "osm_type": "node",
        "infrastructure_type": "Universities/Colleges",
        "name": "Centro de c\u00f3mputo",
        "state": "CA"
      }
    },
    {
      "type": "Feature",
      "geometry": {
        "type": "Point",
        "coordinates": [
          -116.9622683,
          32.5309036
        ]
      },
      "properties": {
        "osm_id": 4739029523,
        "osm_type": "node",
        "infrastructure_type": "Universities/Colleges",
        "name": "Biblioteca",
        "state": "CA"
      }
    },
    {
      "type": "Feature",
      "geometry": {
        "type": "Point",
        "coordinates": [
          -116.9630202,
          32.5318683
        ]
      },
      "properties": {
        "osm_id": 4739029524,
        "osm_type": "node",
        "infrastructure_type": "Universities/Colleges",
        "name": "Facultad de Artes",
        "state": "CA"
      }
    },
    {
      "type": "Feature",
      "geometry": {
        "type": "Point",
        "coordinates": [
          -116.9642811,
          32.5322069
        ]
      },
      "properties": {
        "osm_id": 4739029525,
        "osm_type": "node",
        "infrastructure_type": "Universities/Colleges",
        "name": "Sorteos UABC",
        "state": "CA"
      }
    },
    {
      "type": "Feature",
      "geometry": {
        "type": "Point",
        "coordinates": [
          -116.9668376,
          32.5314185
        ]
      },
      "properties": {
        "osm_id": 4739036688,
        "osm_type": "node",
        "infrastructure_type": "Universities/Colleges",
        "name": "Facultad de Idiomas",
        "state": "CA"
      }
    },
    {
      "type": "Feature",
      "geometry": {
        "type": "Point",
        "coordinates": [
          -116.9670772,
          32.5311084
        ]
      },
      "properties": {
        "osm_id": 4739036689,
        "osm_type": "node",
        "infrastructure_type": "Universities/Colleges",
        "name": "CEMAII",
        "state": "CA"
      }
    },
    {
      "type": "Feature",
      "geometry": {
        "type": "Point",
        "coordinates": [
          -116.9881905,
          32.5287868
        ]
      },
      "properties": {
        "osm_id": 5004422433,
        "osm_type": "node",
        "infrastructure_type": "Universities/Colleges",
        "name": "Instituto Tecnol\u00f3gico de Tijuana",
        "address": "SN Calzada Tecnologico S/N, Fraccionamiento Tomi\ufffdS Aquino, A. P. 1166",
        "state": "CA",
        "website": "https://www.tijuana.tecnm.mx/"
      }
    },
    {
      "type": "Feature",
      "geometry": {
        "type": "Point",
        "coordinates": [
          -121.4508645,
          38.5520732
        ]
      },
      "properties": {
        "osm_id": 5080748921,
        "osm_type": "node",
        "infrastructure_type": "Universities/Colleges",
        "name": "UC Davis School of Nursing",
        "state": "CA",
        "website": "http://www.ucdmc.ucdavis.edu/nursing/"
      }
    },
    {
      "type": "Feature",
      "geometry": {
        "type": "Point",
        "coordinates": [
          -117.074367,
          32.7770429
        ]
      },
      "properties": {
        "osm_id": 5361949175,
        "osm_type": "node",
        "infrastructure_type": "Universities/Colleges",
        "name": "SDSU Department of Geography",
        "state": "CA"
      }
    },
    {
      "type": "Feature",
      "geometry": {
        "type": "Point",
        "coordinates": [
          -121.529789,
          38.64643
        ]
      },
      "properties": {
        "osm_id": 5766773898,
        "osm_type": "node",
        "infrastructure_type": "Universities/Colleges",
        "name": "Universal Technical Institute Sacramento",
        "state": "CA"
      }
    },
    {
      "type": "Feature",
      "geometry": {
        "type": "Point",
        "coordinates": [
          -116.9596404,
          32.5323052
        ]
      },
      "properties": {
        "osm_id": 7209722739,
        "osm_type": "node",
        "infrastructure_type": "Universities/Colleges",
        "name": "FEYRI",
        "state": "CA"
      }
    },
    {
      "type": "Feature",
      "geometry": {
        "type": "Point",
        "coordinates": [
          -121.7863419,
          37.257214
        ]
      },
      "properties": {
        "osm_id": 7598925167,
        "osm_type": "node",
        "infrastructure_type": "Universities/Colleges",
        "name": "Northeastern University Silicon Valley",
        "address": "6024 Silver Creek Valley Road",
        "city": "San Jose",
        "state": "CA",
        "website": "https://bayarea.northeastern.edu/"
      }
    },
    {
      "type": "Feature",
      "geometry": {
        "type": "Point",
        "coordinates": [
          -117.7155895,
          34.0943593
        ]
      },
      "properties": {
        "osm_id": 7840092828,
        "osm_type": "node",
        "infrastructure_type": "Universities/Colleges",
        "name": "Claremont Lincoln University",
        "address": "150 W. First Street",
        "city": "Claremont",
        "state": "CA",
        "phone": "+1 909-667-4400",
        "website": "https://www.claremontlincoln.edu/"
      }
    },
    {
      "type": "Feature",
      "geometry": {
        "type": "Point",
        "coordinates": [
          -119.2158377,
          34.2703866
        ]
      },
      "properties": {
        "osm_id": 8335700536,
        "osm_type": "node",
        "infrastructure_type": "Universities/Colleges",
        "name": "University of California Coopertive Extension",
        "state": "CA"
      }
    },
    {
      "type": "Feature",
      "geometry": {
        "type": "Point",
        "coordinates": [
          -121.9408879,
          37.4140397
        ]
      },
      "properties": {
        "osm_id": 8566442104,
        "osm_type": "node",
        "infrastructure_type": "Universities/Colleges",
        "name": "University of Silicon Valley",
        "address": "191 Baypointe Parkway",
        "city": "San Jose",
        "state": "CA"
      }
    },
    {
      "type": "Feature",
      "geometry": {
        "type": "Point",
        "coordinates": [
          -118.6010186,
          34.1789931
        ]
      },
      "properties": {
        "osm_id": 8682927461,
        "osm_type": "node",
        "infrastructure_type": "Universities/Colleges",
        "name": "UCLA Extension",
        "address": "21650 Oxnard Street",
        "city": "Woodland Hills",
        "state": "CA",
        "website": "https://www.uclaextension.edu/locations/woodland-hills"
      }
    },
    {
      "type": "Feature",
      "geometry": {
        "type": "Point",
        "coordinates": [
          -117.893847,
          34.1357018
        ]
      },
      "properties": {
        "osm_id": 8952794201,
        "osm_type": "node",
        "infrastructure_type": "Universities/Colleges",
        "name": "School Of Behavioral and Applied Sciences",
        "state": "CA"
      }
    },
    {
      "type": "Feature",
      "geometry": {
        "type": "Point",
        "coordinates": [
          -117.893845,
          34.1356491
        ]
      },
      "properties": {
        "osm_id": 8952794203,
        "osm_type": "node",
        "infrastructure_type": "Universities/Colleges",
        "name": "Classrooms (ARTW)",
        "state": "CA"
      }
    },
    {
      "type": "Feature",
      "geometry": {
        "type": "Point",
        "coordinates": [
          -117.893946,
          34.1356623
        ]
      },
      "properties": {
        "osm_id": 8952794204,
        "osm_type": "node",
        "infrastructure_type": "Universities/Colleges",
        "name": "Classrooms (DUKE)",
        "state": "CA"
      }
    },
    {
      "type": "Feature",
      "geometry": {
        "type": "Point",
        "coordinates": [
          -117.893882,
          34.1357429
        ]
      },
      "properties": {
        "osm_id": 8952794205,
        "osm_type": "node",
        "infrastructure_type": "Universities/Colleges",
        "name": "Department Of Criminal Justice",
        "state": "CA"
      }
    },
    {
      "type": "Feature",
      "geometry": {
        "type": "Point",
        "coordinates": [
          -117.893898,
          34.135633
        ]
      },
      "properties": {
        "osm_id": 8952794206,
        "osm_type": "node",
        "infrastructure_type": "Universities/Colleges",
        "name": "Duke Academic Complex",
        "state": "CA"
      }
    },
    {
      "type": "Feature",
      "geometry": {
        "type": "Point",
        "coordinates": [
          -117.8939,
          34.1356799
        ]
      },
      "properties": {
        "osm_id": 8952794208,
        "osm_type": "node",
        "infrastructure_type": "Universities/Colleges",
        "name": "Office Of Faith Integration",
        "state": "CA"
      }
    },
    {
      "type": "Feature",
      "geometry": {
        "type": "Point",
        "coordinates": [
          -117.893921,
          34.1357385
        ]
      },
      "properties": {
        "osm_id": 8952794210,
        "osm_type": "node",
        "infrastructure_type": "Universities/Colleges",
        "name": "Department Of Higher Education",
        "state": "CA"
      }
    },
    {
      "type": "Feature",
      "geometry": {
        "type": "Point",
        "coordinates": [
          -117.893986,
          34.1356828
        ]
      },
      "properties": {
        "osm_id": 8952878955,
        "osm_type": "node",
        "infrastructure_type": "Universities/Colleges",
        "name": "Center For Institutional Assessment and Planning",
        "state": "CA"
      }
    },
    {
      "type": "Feature",
      "geometry": {
        "type": "Point",
        "coordinates": [
          -117.893956,
          34.1357765
        ]
      },
      "properties": {
        "osm_id": 8952878956,
        "osm_type": "node",
        "infrastructure_type": "Universities/Colleges",
        "name": "Office Of Institutional Research and Assessment",
        "state": "CA"
      }
    },
    {
      "type": "Feature",
      "geometry": {
        "type": "Point",
        "coordinates": [
          -117.893822,
          34.1357663
        ]
      },
      "properties": {
        "osm_id": 8952878958,
        "osm_type": "node",
        "infrastructure_type": "Universities/Colleges",
        "name": "Azusa Pacific Seminary",
        "state": "CA"
      }
    },
    {
      "type": "Feature",
      "geometry": {
        "type": "Point",
        "coordinates": [
          -117.893981,
          34.1356491
        ]
      },
      "properties": {
        "osm_id": 8952878960,
        "osm_type": "node",
        "infrastructure_type": "Universities/Colleges",
        "name": "School Of Theology",
        "state": "CA"
      }
    },
    {
      "type": "Feature",
      "geometry": {
        "type": "Point",
        "coordinates": [
          -117.893942,
          34.1356315
        ]
      },
      "properties": {
        "osm_id": 8952878961,
        "osm_type": "node",
        "infrastructure_type": "Universities/Colleges",
        "name": "Center For Vocational Ministry",
        "state": "CA"
      }
    },
    {
      "type": "Feature",
      "geometry": {
        "type": "Point",
        "coordinates": [
          -117.893949,
          34.1352243
        ]
      },
      "properties": {
        "osm_id": 8952878963,
        "osm_type": "node",
        "infrastructure_type": "Universities/Colleges",
        "name": "Classrooms (HILL)",
        "state": "CA"
      }
    },
    {
      "type": "Feature",
      "geometry": {
        "type": "Point",
        "coordinates": [
          -117.893997,
          34.1352068
        ]
      },
      "properties": {
        "osm_id": 8952878965,
        "osm_type": "node",
        "infrastructure_type": "Universities/Colleges",
        "name": "Department Of Kinesiology",
        "state": "CA"
      }
    },
    {
      "type": "Feature",
      "geometry": {
        "type": "Point",
        "coordinates": [
          -117.893981,
          34.1351833
        ]
      },
      "properties": {
        "osm_id": 8952878966,
        "osm_type": "node",
        "infrastructure_type": "Universities/Colleges",
        "name": "Department Of Leadership and Organizational Psychology",
        "state": "CA"
      }
    },
    {
      "type": "Feature",
      "geometry": {
        "type": "Point",
        "coordinates": [
          -117.893916,
          34.1351833
        ]
      },
      "properties": {
        "osm_id": 8952878967,
        "osm_type": "node",
        "infrastructure_type": "Universities/Colleges",
        "name": "Department Of Marriage and Family Therapy",
        "state": "CA"
      }
    },
    {
      "type": "Feature",
      "geometry": {
        "type": "Point",
        "coordinates": [
          -117.893949,
          34.1351628
        ]
      },
      "properties": {
        "osm_id": 8952878968,
        "osm_type": "node",
        "infrastructure_type": "Universities/Colleges",
        "name": "Mary Hill Center",
        "state": "CA"
      }
    },
    {
      "type": "Feature",
      "geometry": {
        "type": "Point",
        "coordinates": [
          -117.894009,
          34.1351702
        ]
      },
      "properties": {
        "osm_id": 8952878969,
        "osm_type": "node",
        "infrastructure_type": "Universities/Colleges",
        "name": "Department of Clinical Psychology",
        "state": "CA"
      }
    },
    {
      "type": "Feature",
      "geometry": {
        "type": "Point",
        "coordinates": [
          -117.893919,
          34.1351438
        ]
      },
      "properties": {
        "osm_id": 8952878970,
        "osm_type": "node",
        "infrastructure_type": "Universities/Colleges",
        "name": "Department Of Theater Arts",
        "state": "CA"
      }
    },
    {
      "type": "Feature",
      "geometry": {
        "type": "Point",
        "coordinates": [
          -117.1888447,
          32.7715639
        ]
      },
      "properties": {
        "osm_id": 8999676161,
        "osm_type": "node",
        "infrastructure_type": "Universities/Colleges",
        "name": "University of San Diego School of Law",
        "state": "CA",
        "website": "https://www.sandiego.edu/law/"
      }
    },
    {
      "type": "Feature",
      "geometry": {
        "type": "Point",
        "coordinates": [
          -121.8917213,
          37.3931316
        ]
      },
      "properties": {
        "osm_id": 9429750441,
        "osm_type": "node",
        "infrastructure_type": "Universities/Colleges",
        "name": "Five Branches University",
        "address": "1885 Lundy Avenue",
        "city": "San Jose",
        "state": "CA"
      }
    },
    {
      "type": "Feature",
      "geometry": {
        "type": "Point",
        "coordinates": [
          -116.6351392,
          32.5698768
        ]
      },
      "properties": {
        "osm_id": 9880756275,
        "osm_type": "node",
        "infrastructure_type": "Universities/Colleges",
        "name": "Cenyca Tecate",
        "address": "908 Calle F",
        "city": "tecate",
        "state": "CA",
        "website": "https://cenyca.edu.mx/"
      }
    },
    {
      "type": "Feature",
      "geometry": {
        "type": "Point",
        "coordinates": [
          -121.8895515,
          37.3370902
        ]
      },
      "properties": {
        "osm_id": 11498164632,
        "osm_type": "node",
        "infrastructure_type": "Universities/Colleges",
        "name": "Northeastern University Silicon Valley",
        "address": "75 East Santa Clara Street",
        "city": "San Jose",
        "state": "CA",
        "website": "https://siliconvalley.northeastern.edu/"
      }
    },
    {
      "type": "Feature",
      "geometry": {
        "type": "Point",
        "coordinates": [
          -121.8897397,
          37.3374858
        ]
      },
      "properties": {
        "osm_id": 11498164633,
        "osm_type": "node",
        "infrastructure_type": "Universities/Colleges",
        "name": "Northeastern University Silicon Valley",
        "address": "4 North 2nd Street",
        "city": "San Jose",
        "state": "CA",
        "website": "https://siliconvalley.northeastern.edu/"
      }
    },
    {
      "type": "Feature",
      "geometry": {
        "type": "Point",
        "coordinates": [
          -116.8754026,
          32.5140699
        ]
      },
      "properties": {
        "osm_id": 11518372366,
        "osm_type": "node",
        "infrastructure_type": "Universities/Colleges",
        "name": "Universitario Tecnol\u00f3gico Universitam",
        "state": "CA",
        "phone": "52-664-6564938",
        "website": "https://universitam.edu.mx/"
      }
    },
    {
      "type": "Feature",
      "geometry": {
        "type": "Point",
        "coordinates": [
          -121.922788,
          37.3338828
        ]
      },
      "properties": {
        "osm_id": 11749661840,
        "osm_type": "node",
        "infrastructure_type": "Universities/Colleges",
        "name": "Rose-Croix University International",
        "state": "CA"
      }
    },
    {
      "type": "Feature",
      "geometry": {
        "type": "Point",
        "coordinates": [
          -122.267374,
          37.8693697
        ]
      },
      "properties": {
        "osm_id": 12007380847,
        "osm_type": "node",
        "infrastructure_type": "Universities/Colleges",
        "name": "Berkeley Wireless Research Center",
        "address": "2108 Allston Way",
        "city": "Berkeley",
        "state": "CA",
        "website": "https://bwrc.eecs.berkeley.edu/"
      }
    },
    {
      "type": "Feature",
      "geometry": {
        "type": "Point",
        "coordinates": [
          -122.1636705,
          37.4441105
        ]
      },
      "properties": {
        "osm_id": 12064311221,
        "osm_type": "node",
        "infrastructure_type": "Universities/Colleges",
        "name": "Wade Institute of Technology",
        "address": "135 University Avenue",
        "state": "CA"
      }
    },
    {
      "type": "Feature",
      "geometry": {
        "type": "Point",
        "coordinates": [
          -118.2493269,
          34.0482667
        ]
      },
      "properties": {
        "osm_id": 12119928687,
        "osm_type": "node",
        "infrastructure_type": "Universities/Colleges",
        "name": "UCLA Downtown",
        "state": "CA"
      }
    },
    {
      "type": "Feature",
      "geometry": {
        "type": "Point",
        "coordinates": [
          -122.3925583,
          37.7911018
        ]
      },
      "properties": {
        "osm_id": 12747187201,
        "osm_type": "node",
        "infrastructure_type": "Universities/Colleges",
        "name": "University of San Francisco - Folger Building",
        "address": "101 Howard Street",
        "state": "CA"
      }
    },
    {
      "type": "Feature",
      "geometry": {
        "type": "Point",
        "coordinates": [
          -119.8482729,
          34.4134513
        ]
      },
      "properties": {
        "osm_id": 12831863877,
        "osm_type": "node",
        "infrastructure_type": "Universities/Colleges",
        "name": "Veterans Resource Center",
        "address": "434",
        "city": "Santa Barbara",
        "state": "CA",
        "phone": "+1-805-893-4157",
        "website": "https://veterans.sa.ucsb.edu/VMRC"
      }
    },
    {
      "type": "Feature",
      "geometry": {
        "type": "Point",
        "coordinates": [
          -119.8483831,
          34.413625
        ]
      },
      "properties": {
        "osm_id": 12852193712,
        "osm_type": "node",
        "infrastructure_type": "Universities/Colleges",
        "name": "McNair Scholars Program",
        "address": "477",
        "city": "Santa Barbara",
        "state": "CA",
        "website": "https://www.mcnair.ucsb.edu/"
      }
    },
    {
      "type": "Feature",
      "geometry": {
        "type": "Point",
        "coordinates": [
          -119.8485067,
          34.4134075
        ]
      },
      "properties": {
        "osm_id": 12852215244,
        "osm_type": "node",
        "infrastructure_type": "Universities/Colleges",
        "name": "Sustainability Center",
        "address": "434",
        "city": "Santa Barbara",
        "state": "CA",
        "phone": "+1-805-448-5111",
        "website": "https://www.sustainability.ucsb.edu/"
      }
    },
    {
      "type": "Feature",
      "geometry": {
        "type": "Point",
        "coordinates": [
          -119.8485887,
          34.4135807
        ]
      },
      "properties": {
        "osm_id": 12852218827,
        "osm_type": "node",
        "infrastructure_type": "Universities/Colleges",
        "name": "MESA Program",
        "address": "477",
        "city": "Santa Barbara",
        "state": "CA",
        "website": "https://oep.ucsb.edu/programs/mesa-university-program"
      }
    },
    {
      "type": "Feature",
      "geometry": {
        "type": "Point",
        "coordinates": [
          -117.8063023,
          33.7156509
        ]
      },
      "properties": {
        "osm_id": 13048643860,
        "osm_type": "node",
        "infrastructure_type": "Universities/Colleges",
        "name": "Kairos Pacific University of California, Campus of AEU",
        "state": "CA"
      }
    },
    {
      "type": "Feature",
      "geometry": {
        "type": "Point",
        "coordinates": [
          -116.9880564,
          32.5302492
        ]
      },
      "properties": {
        "osm_id": 13129727659,
        "osm_type": "node",
        "infrastructure_type": "Universities/Colleges",
        "name": "Edificio 300",
        "state": "CA"
      }
    },
    {
      "type": "Feature",
      "geometry": {
        "type": "Point",
        "coordinates": [
          -116.987459,
          32.5298318
        ]
      },
      "properties": {
        "osm_id": 13129728599,
        "osm_type": "node",
        "infrastructure_type": "Universities/Colleges",
        "name": "Edificio Q",
        "state": "CA"
      }
    },
    {
      "type": "Feature",
      "geometry": {
        "type": "Point",
        "coordinates": [
          -116.9870145,
          32.5299694
        ]
      },
      "properties": {
        "osm_id": 13129735096,
        "osm_type": "node",
        "infrastructure_type": "Universities/Colleges",
        "name": "Laboratorio D",
        "state": "CA"
      }
    },
    {
      "type": "Feature",
      "geometry": {
        "type": "Point",
        "coordinates": [
          -116.9869106,
          32.5295478
        ]
      },
      "properties": {
        "osm_id": 13129738892,
        "osm_type": "node",
        "infrastructure_type": "Universities/Colleges",
        "name": "Edificio 900",
        "state": "CA"
      }
    },
    {
      "type": "Feature",
      "geometry": {
        "type": "Point",
        "coordinates": [
          -117.8122731,
          34.0603476
        ]
      },
      "properties": {
        "osm_id": 13172582987,
        "osm_type": "node",
        "infrastructure_type": "Universities/Colleges",
        "name": "Structures Lab",
        "state": "CA"
      }
    },
    {
      "type": "Feature",
      "geometry": {
        "type": "Point",
        "coordinates": [
          -115.2035265,
          36.3144151
        ]
      },
      "properties": {
        "osm_id": 13318048823,
        "osm_type": "node",
        "infrastructure_type": "Universities/Colleges",
        "name": "Center for Urban Water Conservation",
        "state": "CA"
      }
    },
    {
      "type": "Feature",
      "geometry": {
        "type": "Point",
        "coordinates": [
          -119.7174058,
          34.4292916
        ]
      },
      "properties": {
        "osm_id": 13395759198,
        "osm_type": "node",
        "infrastructure_type": "Universities/Colleges",
        "name": "Fielding Graduate University",
        "state": "CA"
      }
    },
    {
      "type": "Feature",
      "geometry": {
        "type": "Point",
        "coordinates": [
          -117.0475055,
          32.5268222
        ]
      },
      "properties": {
        "osm_id": 13530314401,
        "osm_type": "node",
        "infrastructure_type": "Universities/Colleges",
        "name": "UNIAT - Campus Tijuana",
        "address": "7156 Avenida Ignacio Allende",
        "state": "CA",
        "phone": "6645670394",
        "website": "http://uniat.edu.mx"
      }
    },
    {
      "type": "Feature",
      "geometry": {
        "type": "Point",
        "coordinates": [
          -117.1638449,
          34.0635877
        ]
      },
      "properties": {
        "osm_id": 14369263,
        "osm_type": "way",
        "infrastructure_type": "Universities/Colleges",
        "name": "University of Redlands",
        "state": "CA"
      }
    },
    {
      "type": "Feature",
      "geometry": {
        "type": "Point",
        "coordinates": [
          -115.4688236,
          32.6633602
        ]
      },
      "properties": {
        "osm_id": 17957502,
        "osm_type": "way",
        "infrastructure_type": "Universities/Colleges",
        "name": "Rector\u00eda UABC",
        "state": "CA"
      }
    },
    {
      "type": "Feature",
      "geometry": {
        "type": "Point",
        "coordinates": [
          -118.4195763,
          33.968936
        ]
      },
      "properties": {
        "osm_id": 22965722,
        "osm_type": "way",
        "infrastructure_type": "Universities/Colleges",
        "name": "Loyola Marymount University",
        "state": "CA"
      }
    },
    {
      "type": "Feature",
      "geometry": {
        "type": "Point",
        "coordinates": [
          -122.1816479,
          37.7798913
        ]
      },
      "properties": {
        "osm_id": 23566622,
        "osm_type": "way",
        "infrastructure_type": "Universities/Colleges",
        "name": "Mills College at Northeastern University",
        "address": "5000 MacArthur Boulevard",
        "city": "Oakland",
        "state": "CA",
        "website": "https://mills.northeastern.edu/"
      }
    },
    {
      "type": "Feature",
      "geometry": {
        "type": "Point",
        "coordinates": [
          -122.25798,
          37.8756681
        ]
      },
      "properties": {
        "osm_id": 24025432,
        "osm_type": "way",
        "infrastructure_type": "Universities/Colleges",
        "name": "Goldman School of Public Policy",
        "state": "CA"
      }
    },
    {
      "type": "Feature",
      "geometry": {
        "type": "Point",
        "coordinates": [
          -122.4052582,
          37.7823846
        ]
      },
      "properties": {
        "osm_id": 25759123,
        "osm_type": "way",
        "infrastructure_type": "Universities/Colleges",
        "name": "Arthur A Dugoni School of Dentistry",
        "address": "155 5th Street",
        "state": "CA"
      }
    },
    {
      "type": "Feature",
      "geometry": {
        "type": "Point",
        "coordinates": [
          -121.8812224,
          37.3351301
        ]
      },
      "properties": {
        "osm_id": 25775883,
        "osm_type": "way",
        "infrastructure_type": "Universities/Colleges",
        "name": "San Jos\u00e9 State University Main Campus",
        "address": "1 Washington Square",
        "city": "San Jose",
        "state": "CA",
        "website": "https://www.sjsu.edu/"
      }
    },
    {
      "type": "Feature",
      "geometry": {
        "type": "Point",
        "coordinates": [
          -117.23656,
          32.8788435
        ]
      },
      "properties": {
        "osm_id": 25822522,
        "osm_type": "way",
        "infrastructure_type": "Universities/Colleges",
        "name": "University of California, San Diego",
        "address": "9500 Gilman Drive",
        "city": "La Jolla",
        "state": "CA",
        "website": "https://www.ucsd.edu/"
      }
    },
    {
      "type": "Feature",
      "geometry": {
        "type": "Point",
        "coordinates": [
          -115.3219613,
          36.12108
        ]
      },
      "properties": {
        "osm_id": 27523892,
        "osm_type": "way",
        "infrastructure_type": "Universities/Colleges",
        "name": "Roseman University of Health Sciences Summerlin Campus",
        "address": "10530 Discovery Drive",
        "city": "Las Vegas",
        "state": "NV",
        "phone": "+1 702 802 2841",
        "website": "https://www.roseman.edu/"
      }
    },
    {
      "type": "Feature",
      "geometry": {
        "type": "Point",
        "coordinates": [
          -115.1355858,
          36.0448619
        ]
      },
      "properties": {
        "osm_id": 27721296,
        "osm_type": "way",
        "infrastructure_type": "Universities/Colleges",
        "name": "University of Nevada, Reno Cooperative Extension",
        "state": "CA"
      }
    },
    {
      "type": "Feature",
      "geometry": {
        "type": "Point",
        "coordinates": [
          -115.1485175,
          36.1141651
        ]
      },
      "properties": {
        "osm_id": 27897949,
        "osm_type": "way",
        "infrastructure_type": "Universities/Colleges",
        "name": "Desert Research Institute",
        "address": "755 East Flamingo Road",
        "city": "Las Vegas",
        "state": "NV",
        "phone": "+1-702-862-5400",
        "website": "https://www.dri.edu/"
      }
    },
    {
      "type": "Feature",
      "geometry": {
        "type": "Point",
        "coordinates": [
          -121.8494406,
          39.7295278
        ]
      },
      "properties": {
        "osm_id": 28551484,
        "osm_type": "way",
        "infrastructure_type": "Universities/Colleges",
        "name": "California State University, Chico",
        "address": "400 West 1st Street",
        "city": "Chico",
        "state": "CA",
        "website": "https://www.csuchico.edu/"
      }
    },
    {
      "type": "Feature",
      "geometry": {
        "type": "Point",
        "coordinates": [
          -122.4801099,
          37.7245493
        ]
      },
      "properties": {
        "osm_id": 28965902,
        "osm_type": "way",
        "infrastructure_type": "Universities/Colleges",
        "name": "San Francisco State University",
        "address": "1600 Holloway Avenue",
        "city": "San Francisco",
        "state": "CA",
        "website": "https://www.sfsu.edu/"
      }
    },
    {
      "type": "Feature",
      "geometry": {
        "type": "Point",
        "coordinates": [
          -118.1253417,
          34.1370829
        ]
      },
      "properties": {
        "osm_id": 29111188,
        "osm_type": "way",
        "infrastructure_type": "Universities/Colleges",
        "name": "California Institute of Technology",
        "state": "CA"
      }
    },
    {
      "type": "Feature",
      "geometry": {
        "type": "Point",
        "coordinates": [
          -122.169052,
          37.4311928
        ]
      },
      "properties": {
        "osm_id": 29268613,
        "osm_type": "way",
        "infrastructure_type": "Universities/Colleges",
        "name": "Stanford University",
        "address": "450 Jane Stanford Way",
        "city": "Stanford",
        "state": "CA"
      }
    },
    {
      "type": "Feature",
      "geometry": {
        "type": "Point",
        "coordinates": [
          -117.162041,
          32.7220352
        ]
      },
      "properties": {
        "osm_id": 31523860,
        "osm_type": "way",
        "infrastructure_type": "Universities/Colleges",
        "name": "California Western School of Law",
        "state": "CA"
      }
    },
    {
      "type": "Feature",
      "geometry": {
        "type": "Point",
        "coordinates": [
          -117.4998516,
          33.9115149
        ]
      },
      "properties": {
        "osm_id": 31756481,
        "osm_type": "way",
        "infrastructure_type": "Universities/Colleges",
        "name": "La Sierra University Campus",
        "address": "4500 Riverwalk Parkway",
        "city": "Riverside",
        "state": "CA"
      }
    },
    {
      "type": "Feature",
      "geometry": {
        "type": "Point",
        "coordinates": [
          -117.8853667,
          33.8833615
        ]
      },
      "properties": {
        "osm_id": 32025397,
        "osm_type": "way",
        "infrastructure_type": "Universities/Colleges",
        "name": "California State University Fullerton",
        "address": "800 North State College Boulevard",
        "city": "Fullerton",
        "state": "CA",
        "website": "https://www.fullerton.edu/"
      }
    },
    {
      "type": "Feature",
      "geometry": {
        "type": "Point",
        "coordinates": [
          -121.1268977,
          38.6628165
        ]
      },
      "properties": {
        "osm_id": 32054444,
        "osm_type": "way",
        "infrastructure_type": "Universities/Colleges",
        "name": "Folsom Lake College",
        "state": "CA"
      }
    },
    {
      "type": "Feature",
      "geometry": {
        "type": "Point",
        "coordinates": [
          -122.400111,
          37.7980351
        ]
      },
      "properties": {
        "osm_id": 32947670,
        "osm_type": "way",
        "infrastructure_type": "Universities/Colleges",
        "name": "Saybrook University",
        "address": "733 Front Street",
        "state": "CA",
        "website": "https://www.saybrook.edu/"
      }
    },
    {
      "type": "Feature",
      "geometry": {
        "type": "Point",
        "coordinates": [
          -117.7087264,
          34.1058688
        ]
      },
      "properties": {
        "osm_id": 34037202,
        "osm_type": "way",
        "infrastructure_type": "Universities/Colleges",
        "name": "Harvey Mudd College",
        "state": "CA"
      }
    },
    {
      "type": "Feature",
      "geometry": {
        "type": "Point",
        "coordinates": [
          -122.4588643,
          37.7627282
        ]
      },
      "properties": {
        "osm_id": 34324395,
        "osm_type": "way",
        "infrastructure_type": "Universities/Colleges",
        "name": "University of California, San Francisco",
        "state": "CA",
        "website": "https://www.ucsf.edu/"
      }
    },
    {
      "type": "Feature",
      "geometry": {
        "type": "Point",
        "coordinates": [
          -122.0582778,
          36.9564813
        ]
      },
      "properties": {
        "osm_id": 34751509,
        "osm_type": "way",
        "infrastructure_type": "Universities/Colleges",
        "name": "University of California Santa Cruz Westside Research Park",
        "state": "CA"
      }
    },
    {
      "type": "Feature",
      "geometry": {
        "type": "Point",
        "coordinates": [
          -122.0504598,
          36.9550427
        ]
      },
      "properties": {
        "osm_id": 34752934,
        "osm_type": "way",
        "infrastructure_type": "Universities/Colleges",
        "name": "Unknown",
        "address": "2155 Delaware Avenue",
        "state": "CA"
      }
    },
    {
      "type": "Feature",
      "geometry": {
        "type": "Point",
        "coordinates": [
          -122.0490908,
          36.95633
        ]
      },
      "properties": {
        "osm_id": 34896027,
        "osm_type": "way",
        "infrastructure_type": "Universities/Colleges",
        "name": "University of California Santa Cruz",
        "state": "CA"
      }
    },
    {
      "type": "Feature",
      "geometry": {
        "type": "Point",
        "coordinates": [
          -122.050364,
          36.9550719
        ]
      },
      "properties": {
        "osm_id": 34896030,
        "osm_type": "way",
        "infrastructure_type": "Universities/Colleges",
        "name": "University of California Santa Cruz",
        "state": "CA"
      }
    },
    {
      "type": "Feature",
      "geometry": {
        "type": "Point",
        "coordinates": [
          -122.0570341,
          36.957316
        ]
      },
      "properties": {
        "osm_id": 34944336,
        "osm_type": "way",
        "infrastructure_type": "Universities/Colleges",
        "name": "University of California Santa Cruz",
        "state": "CA"
      }
    },
    {
      "type": "Feature",
      "geometry": {
        "type": "Point",
        "coordinates": [
          -122.4161974,
          37.7745776
        ]
      },
      "properties": {
        "osm_id": 35115837,
        "osm_type": "way",
        "infrastructure_type": "Universities/Colleges",
        "name": "California Institute of Integral Studies",
        "state": "CA"
      }
    },
    {
      "type": "Feature",
      "geometry": {
        "type": "Point",
        "coordinates": [
          -117.8407772,
          33.6431527
        ]
      },
      "properties": {
        "osm_id": 35154092,
        "osm_type": "way",
        "infrastructure_type": "Universities/Colleges",
        "name": "University of California, Irvine",
        "state": "CA",
        "website": "https://uci.edu/"
      }
    },
    {
      "type": "Feature",
      "geometry": {
        "type": "Point",
        "coordinates": [
          -119.8557766,
          34.4121149
        ]
      },
      "properties": {
        "osm_id": 38171414,
        "osm_type": "way",
        "infrastructure_type": "Universities/Colleges",
        "name": "Embarcadero Hall",
        "address": "935 Embarcadero del Norte",
        "city": "Isla Vista",
        "state": "CA"
      }
    },
    {
      "type": "Feature",
      "geometry": {
        "type": "Point",
        "coordinates": [
          -119.8550178,
          34.4113313
        ]
      },
      "properties": {
        "osm_id": 38171690,
        "osm_type": "way",
        "infrastructure_type": "Universities/Colleges",
        "name": "Isla Vista Theater",
        "address": "960 Embarcadero Del Norte",
        "city": "Isla Vista",
        "state": "CA"
      }
    },
    {
      "type": "Feature",
      "geometry": {
        "type": "Point",
        "coordinates": [
          -121.7644241,
          37.3011408
        ]
      },
      "properties": {
        "osm_id": 38273588,
        "osm_type": "way",
        "infrastructure_type": "Universities/Colleges",
        "name": "Evergreen Valley College",
        "address": "3095 Yerba Buena Road",
        "city": "San Jose",
        "state": "CA"
      }
    },
    {
      "type": "Feature",
      "geometry": {
        "type": "Point",
        "coordinates": [
          -121.7722998,
          37.3020138
        ]
      },
      "properties": {
        "osm_id": 38882098,
        "osm_type": "way",
        "infrastructure_type": "Universities/Colleges",
        "name": "Evergreen Community College District",
        "state": "CA"
      }
    },
    {
      "type": "Feature",
      "geometry": {
        "type": "Point",
        "coordinates": [
          -122.1937334,
          37.4568499
        ]
      },
      "properties": {
        "osm_id": 40654264,
        "osm_type": "way",
        "infrastructure_type": "Universities/Colleges",
        "name": "Menlo College",
        "state": "CA"
      }
    },
    {
      "type": "Feature",
      "geometry": {
        "type": "Point",
        "coordinates": [
          -118.3416718,
          34.2081832
        ]
      },
      "properties": {
        "osm_id": 41698754,
        "osm_type": "way",
        "infrastructure_type": "Universities/Colleges",
        "name": "Woodbury University",
        "state": "CA"
      }
    },
    {
      "type": "Feature",
      "geometry": {
        "type": "Point",
        "coordinates": [
          -122.1679965,
          37.4588048
        ]
      },
      "properties": {
        "osm_id": 43762648,
        "osm_type": "way",
        "infrastructure_type": "Universities/Colleges",
        "name": "Saint Patrick's Seminary & University",
        "address": "320 Middlefield Road",
        "city": "Menlo Park",
        "state": "CA",
        "phone": "+1-650-325-5621",
        "website": "https://www.stpatricksseminary.org/"
      }
    },
    {
      "type": "Feature",
      "geometry": {
        "type": "Point",
        "coordinates": [
          -122.2854516,
          37.5170037
        ]
      },
      "properties": {
        "osm_id": 43762855,
        "osm_type": "way",
        "infrastructure_type": "Universities/Colleges",
        "name": "College of Notre Dame",
        "state": "CA",
        "website": "https://www.ndnu.edu"
      }
    },
    {
      "type": "Feature",
      "geometry": {
        "type": "Point",
        "coordinates": [
          -119.73983,
          36.819526
        ]
      },
      "properties": {
        "osm_id": 44175866,
        "osm_type": "way",
        "infrastructure_type": "Universities/Colleges",
        "name": "California State University, Fresno",
        "address": "5241 North Maple Avenue",
        "city": "Fresno",
        "state": "CA",
        "website": "https://www.fresnostate.edu/"
      }
    },
    {
      "type": "Feature",
      "geometry": {
        "type": "Point",
        "coordinates": [
          -119.044809,
          34.1673265
        ]
      },
      "properties": {
        "osm_id": 44288984,
        "osm_type": "way",
        "infrastructure_type": "Universities/Colleges",
        "name": "California State University Channel Islands",
        "address": "1 University Drive",
        "city": "Camarillo",
        "state": "CA",
        "phone": "+1 805 437 8400"
      }
    },
    {
      "type": "Feature",
      "geometry": {
        "type": "Point",
        "coordinates": [
          -116.1041211,
          35.14287
        ]
      },
      "properties": {
        "osm_id": 44333447,
        "osm_type": "way",
        "infrastructure_type": "Universities/Colleges",
        "name": "Unknown",
        "state": "CA"
      }
    },
    {
      "type": "Feature",
      "geometry": {
        "type": "Point",
        "coordinates": [
          -116.1043012,
          35.1422778
        ]
      },
      "properties": {
        "osm_id": 44333449,
        "osm_type": "way",
        "infrastructure_type": "Universities/Colleges",
        "name": "Unknown",
        "state": "CA"
      }
    },
    {
      "type": "Feature",
      "geometry": {
        "type": "Point",
        "coordinates": [
          -116.1039043,
          35.1426651
        ]
      },
      "properties": {
        "osm_id": 44333450,
        "osm_type": "way",
        "infrastructure_type": "Universities/Colleges",
        "name": "Unknown",
        "state": "CA"
      }
    },
    {
      "type": "Feature",
      "geometry": {
        "type": "Point",
        "coordinates": [
          -116.1034938,
          35.1427395
        ]
      },
      "properties": {
        "osm_id": 44333451,
        "osm_type": "way",
        "infrastructure_type": "Universities/Colleges",
        "name": "Unknown",
        "state": "CA"
      }
    },
    {
      "type": "Feature",
      "geometry": {
        "type": "Point",
        "coordinates": [
          -115.5055454,
          32.8291549
        ]
      },
      "properties": {
        "osm_id": 44389083,
        "osm_type": "way",
        "infrastructure_type": "Universities/Colleges",
        "name": "Imperial Valley College",
        "address": "380 E Aten Rd.",
        "city": "Imperial",
        "state": "CA",
        "website": "https://imperial.edu/"
      }
    },
    {
      "type": "Feature",
      "geometry": {
        "type": "Point",
        "coordinates": [
          -115.4921514,
          32.6721343
        ]
      },
      "properties": {
        "osm_id": 44389508,
        "osm_type": "way",
        "infrastructure_type": "Universities/Colleges",
        "name": "San Diego State University",
        "address": "720 Heber Avenue",
        "city": "Calexico",
        "state": "CA",
        "website": "https://ivcampus.sdsu.edu/"
      }
    },
    {
      "type": "Feature",
      "geometry": {
        "type": "Point",
        "coordinates": [
          -119.1033368,
          35.3486435
        ]
      },
      "properties": {
        "osm_id": 44403422,
        "osm_type": "way",
        "infrastructure_type": "Universities/Colleges",
        "name": "California State University Bakersfield",
        "state": "CA"
      }
    },
    {
      "type": "Feature",
      "geometry": {
        "type": "Point",
        "coordinates": [
          -116.997825,
          32.6397939
        ]
      },
      "properties": {
        "osm_id": 44500616,
        "osm_type": "way",
        "infrastructure_type": "Universities/Colleges",
        "name": "Southwestern College",
        "address": "900 Otay Lakes Road",
        "city": "Chula Vista",
        "state": "CA"
      }
    },
    {
      "type": "Feature",
      "geometry": {
        "type": "Point",
        "coordinates": [
          -117.1210368,
          32.909118
        ]
      },
      "properties": {
        "osm_id": 44501203,
        "osm_type": "way",
        "infrastructure_type": "Universities/Colleges",
        "name": "San Diego Miramar College",
        "state": "CA"
      }
    },
    {
      "type": "Feature",
      "geometry": {
        "type": "Point",
        "coordinates": [
          -121.790628,
          38.5325463
        ]
      },
      "properties": {
        "osm_id": 44764490,
        "osm_type": "way",
        "infrastructure_type": "Universities/Colleges",
        "name": "UC Davis West Campus",
        "state": "CA"
      }
    },
    {
      "type": "Feature",
      "geometry": {
        "type": "Point",
        "coordinates": [
          -117.7349037,
          33.5546946
        ]
      },
      "properties": {
        "osm_id": 44850260,
        "osm_type": "way",
        "infrastructure_type": "Universities/Colleges",
        "name": "Soka University of America",
        "address": "1 University Drive",
        "city": "Aliso Viejo",
        "state": "CA"
      }
    },
    {
      "type": "Feature",
      "geometry": {
        "type": "Point",
        "coordinates": [
          -117.3222635,
          34.1819191
        ]
      },
      "properties": {
        "osm_id": 45101505,
        "osm_type": "way",
        "infrastructure_type": "Universities/Colleges",
        "name": "California State University, San Bernardino",
        "address": "5500 University Parkway",
        "city": "San Bernardino",
        "state": "CA",
        "phone": "+1 909 537 5000",
        "website": "https://www.csusb.edu/"
      }
    },
    {
      "type": "Feature",
      "geometry": {
        "type": "Point",
        "coordinates": [
          -118.1683409,
          34.0665257
        ]
      },
      "properties": {
        "osm_id": 46337238,
        "osm_type": "way",
        "infrastructure_type": "Universities/Colleges",
        "name": "California State University Los Angeles",
        "address": "5151 State University Drive",
        "city": "Los Angeles",
        "state": "CA",
        "website": "https://www.calstatela.edu/"
      }
    },
    {
      "type": "Feature",
      "geometry": {
        "type": "Point",
        "coordinates": [
          -118.4188274,
          34.3147465
        ]
      },
      "properties": {
        "osm_id": 48664363,
        "osm_type": "way",
        "infrastructure_type": "Universities/Colleges",
        "name": "Los Angeles Mission College",
        "address": "13356 Eldridge Avenue",
        "city": "Sylmar",
        "state": "CA",
        "website": "https://www.lamission.edu/"
      }
    },
    {
      "type": "Feature",
      "geometry": {
        "type": "Point",
        "coordinates": [
          -122.1874763,
          37.802524
        ]
      },
      "properties": {
        "osm_id": 52225288,
        "osm_type": "way",
        "infrastructure_type": "Universities/Colleges",
        "name": "Holy Names University",
        "state": "CA",
        "website": "https://hnu.edu/"
      }
    },
    {
      "type": "Feature",
      "geometry": {
        "type": "Point",
        "coordinates": [
          -119.5162706,
          36.5988005
        ]
      },
      "properties": {
        "osm_id": 61165743,
        "osm_type": "way",
        "infrastructure_type": "Universities/Colleges",
        "name": "University Of California, Kearney Agricultural Center Research Farm",
        "state": "CA"
      }
    },
    {
      "type": "Feature",
      "geometry": {
        "type": "Point",
        "coordinates": [
          -119.504771,
          36.5921963
        ]
      },
      "properties": {
        "osm_id": 61175024,
        "osm_type": "way",
        "infrastructure_type": "Universities/Colleges",
        "name": "University Of California, Kearney Agricultural Center Research Farm",
        "state": "CA"
      }
    },
    {
      "type": "Feature",
      "geometry": {
        "type": "Point",
        "coordinates": [
          -119.5069917,
          36.5992889
        ]
      },
      "properties": {
        "osm_id": 61182621,
        "osm_type": "way",
        "infrastructure_type": "Universities/Colleges",
        "name": "University Of California, Kearney Agricultural Center Research Farm",
        "state": "CA"
      }
    },
    {
      "type": "Feature",
      "geometry": {
        "type": "Point",
        "coordinates": [
          -119.7298416,
          36.7248455
        ]
      },
      "properties": {
        "osm_id": 61665660,
        "osm_type": "way",
        "infrastructure_type": "Universities/Colleges",
        "name": "Fresno Pacific University Athletic Grounds",
        "state": "CA"
      }
    },
    {
      "type": "Feature",
      "geometry": {
        "type": "Point",
        "coordinates": [
          -119.7277754,
          36.7266115
        ]
      },
      "properties": {
        "osm_id": 61666824,
        "osm_type": "way",
        "infrastructure_type": "Universities/Colleges",
        "name": "Unknown",
        "state": "CA"
      }
    },
    {
      "type": "Feature",
      "geometry": {
        "type": "Point",
        "coordinates": [
          -119.7341899,
          36.7261085
        ]
      },
      "properties": {
        "osm_id": 61706395,
        "osm_type": "way",
        "infrastructure_type": "Universities/Colleges",
        "name": "Fresno Pacific University",
        "state": "CA",
        "website": "https://www.fresno.edu/"
      }
    },
    {
      "type": "Feature",
      "geometry": {
        "type": "Point",
        "coordinates": [
          -119.7355809,
          36.7277635
        ]
      },
      "properties": {
        "osm_id": 61707466,
        "osm_type": "way",
        "infrastructure_type": "Universities/Colleges",
        "name": "Fresno Pacific Biblical Seminary",
        "state": "CA"
      }
    },
    {
      "type": "Feature",
      "geometry": {
        "type": "Point",
        "coordinates": [
          -117.8108045,
          33.6539209
        ]
      },
      "properties": {
        "osm_id": 70574692,
        "osm_type": "way",
        "infrastructure_type": "Universities/Colleges",
        "name": "Concordia University, Irvine",
        "address": "1530 Concordia",
        "city": "Irvine",
        "state": "CA",
        "website": "https://www.cui.edu"
      }
    },
    {
      "type": "Feature",
      "geometry": {
        "type": "Point",
        "coordinates": [
          -117.1034115,
          33.487148
        ]
      },
      "properties": {
        "osm_id": 84597478,
        "osm_type": "way",
        "infrastructure_type": "Universities/Colleges",
        "name": "California State University San Marcos at Temecula",
        "state": "CA"
      }
    },
    {
      "type": "Feature",
      "geometry": {
        "type": "Point",
        "coordinates": [
          -122.4103298,
          37.8074751
        ]
      },
      "properties": {
        "osm_id": 93420060,
        "osm_type": "way",
        "infrastructure_type": "Universities/Colleges",
        "name": "Academy of Art University",
        "address": "2300 Stockton Street",
        "city": "San Francisco",
        "state": "CA"
      }
    },
    {
      "type": "Feature",
      "geometry": {
        "type": "Point",
        "coordinates": [
          -124.077077,
          40.875547
        ]
      },
      "properties": {
        "osm_id": 99446807,
        "osm_type": "way",
        "infrastructure_type": "Universities/Colleges",
        "name": "California State Polytechnic University, Humboldt",
        "address": "1 Harpst Street",
        "city": "Arcata",
        "state": "CA"
      }
    },
    {
      "type": "Feature",
      "geometry": {
        "type": "Point",
        "coordinates": [
          -116.4272504,
          32.8412783
        ]
      },
      "properties": {
        "osm_id": 105306296,
        "osm_type": "way",
        "infrastructure_type": "Universities/Colleges",
        "name": "SDSU Astronomy Campus",
        "address": "Galaxy Way",
        "city": "Mount Laguna",
        "state": "CA",
        "phone": "+1-619-594-1415",
        "website": "https://astronomy.sdsu.edu/mount-laguna-observatory-facilities/"
      }
    },
    {
      "type": "Feature",
      "geometry": {
        "type": "Point",
        "coordinates": [
          -119.1819934,
          34.2431177
        ]
      },
      "properties": {
        "osm_id": 106599836,
        "osm_type": "way",
        "infrastructure_type": "Universities/Colleges",
        "name": "National University",
        "address": "1000 Town Center Drive",
        "state": "CA"
      }
    },
    {
      "type": "Feature",
      "geometry": {
        "type": "Point",
        "coordinates": [
          -115.4078257,
          32.6566191
        ]
      },
      "properties": {
        "osm_id": 106695477,
        "osm_type": "way",
        "infrastructure_type": "Universities/Colleges",
        "name": "CETYS Universidad Campus Mexicali",
        "state": "CA"
      }
    },
    {
      "type": "Feature",
      "geometry": {
        "type": "Point",
        "coordinates": [
          -118.2573563,
          33.8626055
        ]
      },
      "properties": {
        "osm_id": 107761773,
        "osm_type": "way",
        "infrastructure_type": "Universities/Colleges",
        "name": "California State University - Dominguez Hills",
        "address": "1000 East Victoria Street",
        "city": "Carson",
        "state": "CA",
        "website": "https://www.csudh.edu/"
      }
    },
    {
      "type": "Feature",
      "geometry": {
        "type": "Point",
        "coordinates": [
          -115.4410691,
          32.6298813
        ]
      },
      "properties": {
        "osm_id": 108123163,
        "osm_type": "way",
        "infrastructure_type": "Universities/Colleges",
        "name": "Benemerita Escuela Normal Urbana Federal Fronteriza",
        "state": "CA"
      }
    },
    {
      "type": "Feature",
      "geometry": {
        "type": "Point",
        "coordinates": [
          -115.4359012,
          32.6306289
        ]
      },
      "properties": {
        "osm_id": 108123165,
        "osm_type": "way",
        "infrastructure_type": "Universities/Colleges",
        "name": "Universidad Pedag\u00f3gica Nacional (UPN) U-021 Mexicali",
        "address": "Avenida Jos\u00e9 Antonio Torres y R\u00edo Mocorito",
        "city": "Mexicali",
        "state": "CA"
      }
    },
    {
      "type": "Feature",
      "geometry": {
        "type": "Point",
        "coordinates": [
          -122.2466625,
          37.8643232
        ]
      },
      "properties": {
        "osm_id": 109193723,
        "osm_type": "way",
        "infrastructure_type": "Universities/Colleges",
        "name": "University of California, Berkeley - Clark Kerr Campus",
        "state": "CA"
      }
    },
    {
      "type": "Feature",
      "geometry": {
        "type": "Point",
        "coordinates": [
          -122.3339921,
          37.9153953
        ]
      },
      "properties": {
        "osm_id": 123365198,
        "osm_type": "way",
        "infrastructure_type": "Universities/Colleges",
        "name": "UC Berkeley - Richmond Field Station",
        "state": "CA"
      }
    },
    {
      "type": "Feature",
      "geometry": {
        "type": "Point",
        "coordinates": [
          -122.2992387,
          37.8866027
        ]
      },
      "properties": {
        "osm_id": 123492311,
        "osm_type": "way",
        "infrastructure_type": "Universities/Colleges",
        "name": "Gill Tract North",
        "city": "Albany",
        "state": "CA"
      }
    },
    {
      "type": "Feature",
      "geometry": {
        "type": "Point",
        "coordinates": [
          -118.0152691,
          33.9065268
        ]
      },
      "properties": {
        "osm_id": 126445769,
        "osm_type": "way",
        "infrastructure_type": "Universities/Colleges",
        "name": "Biola University",
        "address": "13800 Biola Avenue",
        "city": "La Mirada",
        "state": "CA"
      }
    },
    {
      "type": "Feature",
      "geometry": {
        "type": "Point",
        "coordinates": [
          -115.1637446,
          36.1603084
        ]
      },
      "properties": {
        "osm_id": 130590871,
        "osm_type": "way",
        "infrastructure_type": "Universities/Colleges",
        "name": "UNLV Shadow Lane Campus",
        "state": "CA"
      }
    },
    {
      "type": "Feature",
      "geometry": {
        "type": "Point",
        "coordinates": [
          -116.6269488,
          32.5690355
        ]
      },
      "properties": {
        "osm_id": 135131230,
        "osm_type": "way",
        "infrastructure_type": "Universities/Colleges",
        "name": "UABC - Unidad Tecate",
        "address": "Boulevard Universidad",
        "city": "Tecate",
        "state": "CA"
      }
    },
    {
      "type": "Feature",
      "geometry": {
        "type": "Point",
        "coordinates": [
          -117.4607256,
          33.9083483
        ]
      },
      "properties": {
        "osm_id": 138534964,
        "osm_type": "way",
        "infrastructure_type": "Universities/Colleges",
        "name": "Unknown",
        "state": "CA"
      }
    },